[
  {"name": "Visakhapatnam", "state": "Andhra Pradesh", "lat": 17.6868, "lon": 83.2185},
  {"name": "Vijayawada", "state": "Andhra Pradesh", "lat": 16.5062, "lon": 80.6480},
  {"name": "Guntur", "state": "Andhra Pradesh", "lat": 16.3067, "lon": 80.4365},
  {"name": "Nellore", "state": "Andhra Pradesh", "lat": 14.4426, "lon": 79.9865},
  {"name": "Tirupati", "state": "Andhra Pradesh", "lat": 13.6288, "lon": 79.4192},

  {"name": "Itanagar", "state": "Arunachal Pradesh", "lat": 27.0844, "lon": 93.6053},
  {"name": "Naharlagun", "state": "Arunachal Pradesh", "lat": 27.1048, "lon": 93.6954},
  {"name": "Pasighat", "state": "Arunachal Pradesh", "lat": 28.0663, "lon": 95.3260},
  {"name": "Tawang", "state": "Arunachal Pradesh", "lat": 27.5860, "lon": 91.8594},
  {"name": "Ziro", "state": "Arunachal Pradesh", "lat": 27.5400, "lon": 93.8300},

  {"name": "Guwahati", "state": "Assam", "lat": 26.1445, "lon": 91.7362},
  {"name": "Silchar", "state": "Assam", "lat": 24.8333, "lon": 92.7789},
  {"name": "Dibrugarh", "state": "Assam", "lat": 27.4728, "lon": 94.9120},
  {"name": "Jorhat", "state": "Assam", "lat": 26.7509, "lon": 94.2037},
  {"name": "Nagaon", "state": "Assam", "lat": 26.3478, "lon": 92.6839},

  {"name": "Patna", "state": "Bihar", "lat": 25.5941, "lon": 85.1376},
  {"name": "Gaya", "state": "Bihar", "lat": 24.7955, "lon": 85.0002},
  {"name": "Bhagalpur", "state": "Bihar", "lat": 25.2425, "lon": 86.9842},
  {"name": "Muzaffarpur", "state": "Bihar", "lat": 26.1197, "lon": 85.3910},
  {"name": "Darbhanga", "state": "Bihar", "lat": 26.1542, "lon": 85.8918},

  {"name": "Raipur", "state": "Chhattisgarh", "lat": 21.2514, "lon": 81.6296},
  {"name": "Bhilai", "state": "Chhattisgarh", "lat": 21.1938, "lon": 81.3509},
  {"name": "Bilaspur", "state": "Chhattisgarh", "lat": 22.0796, "lon": 82.1391},
  {"name": "Korba", "state": "Chhattisgarh", "lat": 22.3595, "lon": 82.7501},
  {"name": "Durg", "state": "Chhattisgarh", "lat": 21.1904, "lon": 81.2849},

  {"name": "Panaji", "state": "Goa", "lat": 15.4909, "lon": 73.8278},
  {"name": "Margao", "state": "Goa", "lat": 15.2736, "lon": 73.9577},
  {"name": "Vasco da Gama", "state": "Goa", "lat": 15.3983, "lon": 73.8167},
  {"name": "Mapusa", "state": "Goa", "lat": 15.5920, "lon": 73.8101},
  {"name": "Ponda", "state": "Goa", "lat": 15.4018, "lon": 74.0023},

  {"name": "Ahmedabad", "state": "Gujarat", "lat": 23.0225, "lon": 72.5714},
  {"name": "Surat", "state": "Gujarat", "lat": 21.1702, "lon": 72.8311},
  {"name": "Vadodara", "state": "Gujarat", "lat": 22.3072, "lon": 73.1812},
  {"name": "Rajkot", "state": "Gujarat", "lat": 22.3039, "lon": 70.8022},
  {"name": "Gandhinagar", "state": "Gujarat", "lat": 23.2156, "lon": 72.6369},

  {"name": "Gurugram", "state": "Haryana", "lat": 28.4595, "lon": 77.0266},
  {"name": "Faridabad", "state": "Haryana", "lat": 28.4089, "lon": 77.3178},
  {"name": "Panipat", "state": "Haryana", "lat": 29.3909, "lon": 76.9635},
  {"name": "Ambala", "state": "Haryana", "lat": 30.3782, "lon": 76.7767},
  {"name": "Hisar", "state": "Haryana", "lat": 29.1492, "lon": 75.7217},

  {"name": "Shimla", "state": "Himachal Pradesh", "lat": 31.1048, "lon": 77.1734},
  {"name": "Manali", "state": "Himachal Pradesh", "lat": 32.2432, "lon": 77.1892},
  {"name": "Dharamsala", "state": "Himachal Pradesh", "lat": 32.2190, "lon": 76.3234},
  {"name": "Solan", "state": "Himachal Pradesh", "lat": 30.9045, "lon": 77.0967},
  {"name": "Mandi", "state": "Himachal Pradesh", "lat": 31.7160, "lon": 76.9318},

  {"name": "Ranchi", "state": "Jharkhand", "lat": 23.3441, "lon": 85.3096},
  {"name": "Jamshedpur", "state": "Jharkhand", "lat": 22.8046, "lon": 86.2029},
  {"name": "Dhanbad", "state": "Jharkhand", "lat": 23.7957, "lon": 86.4304},
  {"name": "Bokaro", "state": "Jharkhand", "lat": 23.6693, "lon": 86.1511},
  {"name": "Deoghar", "state": "Jharkhand", "lat": 24.4853, "lon": 86.6950},

  {"name": "Bengaluru", "state": "Karnataka", "lat": 12.9716, "lon": 77.5946},
  {"name": "Mysuru", "state": "Karnataka", "lat": 12.2958, "lon": 76.6394},
  {"name": "Mangaluru", "state": "Karnataka", "lat": 12.9141, "lon": 74.8560},
  {"name": "Hubballi", "state": "Karnataka", "lat": 15.3647, "lon": 75.1240},
  {"name": "Belagavi", "state": "Karnataka", "lat": 15.8497, "lon": 74.4977},

  {"name": "Thiruvananthapuram", "state": "Kerala", "lat": 8.5241, "lon": 76.9366},
  {"name": "Kochi", "state": "Kerala", "lat": 9.9312, "lon": 76.2673},
  {"name": "Kozhikode", "state": "Kerala", "lat": 11.2588, "lon": 75.7804},
  {"name": "Thrissur", "state": "Kerala", "lat": 10.5276, "lon": 76.2144},
  {"name": "Kollam", "state": "Kerala", "lat": 8.8932, "lon": 76.6141},

  {"name": "Bhopal", "state": "Madhya Pradesh", "lat": 23.2599, "lon": 77.4126},
  {"name": "Indore", "state": "Madhya Pradesh", "lat": 22.7196, "lon": 75.8577},
  {"name": "Jabalpur", "state": "Madhya Pradesh", "lat": 23.1815, "lon": 79.9864},
  {"name": "Gwalior", "state": "Madhya Pradesh", "lat": 26.2183, "lon": 78.1828},
  {"name": "Ujjain", "state": "Madhya Pradesh", "lat": 23.1765, "lon": 75.7885},

  {"name": "Mumbai", "state": "Maharashtra", "lat": 19.0760, "lon": 72.8777},
  {"name": "Pune", "state": "Maharashtra", "lat": 18.5204, "lon": 73.8567},
  {"name": "Nagpur", "state": "Maharashtra", "lat": 21.1458, "lon": 79.0882},
  {"name": "Nashik", "state": "Maharashtra", "lat": 19.9975, "lon": 73.7898},
  {"name": "Aurangabad", "state": "Maharashtra", "lat": 19.8762, "lon": 75.3433},

  {"name": "Imphal", "state": "Manipur", "lat": 24.8170, "lon": 93.9368},
  {"name": "Thoubal", "state": "Manipur", "lat": 24.6382, "lon": 93.9955},
  {"name": "Bishnupur", "state": "Manipur", "lat": 24.6333, "lon": 93.7667},
  {"name": "Churachandpur", "state": "Manipur", "lat": 24.3333, "lon": 93.6833},
  {"name": "Senapati", "state": "Manipur", "lat": 25.2655, "lon": 94.0198},

  {"name": "Shillong", "state": "Meghalaya", "lat": 25.5788, "lon": 91.8933},
  {"name": "Tura", "state": "Meghalaya", "lat": 25.5149, "lon": 90.2130},
  {"name": "Jowai", "state": "Meghalaya", "lat": 25.4535, "lon": 92.2024},
  {"name": "Nongstoin", "state": "Meghalaya", "lat": 25.5172, "lon": 91.2649},
  {"name": "Baghmara", "state": "Meghalaya", "lat": 25.1961, "lon": 90.6413},

  {"name": "Aizawl", "state": "Mizoram", "lat": 23.7271, "lon": 92.7176},
  {"name": "Lunglei", "state": "Mizoram", "lat": 22.8886, "lon": 92.7331},
  {"name": "Champhai", "state": "Mizoram", "lat": 23.4667, "lon": 93.3333},
  {"name": "Serchhip", "state": "Mizoram", "lat": 23.3167, "lon": 92.8167},
  {"name": "Kolasib", "state": "Mizoram", "lat": 24.2274, "lon": 92.6768},

  {"name": "Kohima", "state": "Nagaland", "lat": 25.6751, "lon": 94.1086},
  {"name": "Dimapur", "state": "Nagaland", "lat": 25.9044, "lon": 93.7312},
  {"name": "Mokokchung", "state": "Nagaland", "lat": 26.3229, "lon": 94.5215},
  {"name": "Tuensang", "state": "Nagaland", "lat": 26.2714, "lon": 94.8246},
  {"name": "Wokha", "state": "Nagaland", "lat": 26.0961, "lon": 94.2665},

  {"name": "Bhubaneswar", "state": "Odisha", "lat": 20.2961, "lon": 85.8245},
  {"name": "Cuttack", "state": "Odisha", "lat": 20.4625, "lon": 85.8830},
  {"name": "Rourkela", "state": "Odisha", "lat": 22.2604, "lon": 84.8536},
  {"name": "Sambalpur", "state": "Odisha", "lat": 21.4669, "lon": 83.9756},
  {"name": "Berhampur", "state": "Odisha", "lat": 19.3149, "lon": 84.7941},

  {"name": "Ludhiana", "state": "Punjab", "lat": 30.9010, "lon": 75.8573},
  {"name": "Amritsar", "state": "Punjab", "lat": 31.6340, "lon": 74.8723},
  {"name": "Jalandhar", "state": "Punjab", "lat": 31.3260, "lon": 75.5762},
  {"name": "Patiala", "state": "Punjab", "lat": 30.3398, "lon": 76.3869},
  {"name": "Bathinda", "state": "Punjab", "lat": 30.2110, "lon": 74.9455},

  {"name": "Jaipur", "state": "Rajasthan", "lat": 26.9124, "lon": 75.7873},
  {"name": "Jodhpur", "state": "Rajasthan", "lat": 26.2389, "lon": 73.0243},
  {"name": "Udaipur", "state": "Rajasthan", "lat": 24.5854, "lon": 73.7125},
  {"name": "Kota", "state": "Rajasthan", "lat": 25.2138, "lon": 75.8648},
  {"name": "Bikaner", "state": "Rajasthan", "lat": 28.0229, "lon": 73.3119},

  {"name": "Gangtok", "state": "Sikkim", "lat": 27.3314, "lon": 88.6138},
  {"name": "Namchi", "state": "Sikkim", "lat": 27.1667, "lon": 88.3667},
  {"name": "Gyalshing", "state": "Sikkim", "lat": 27.2833, "lon": 88.2833},
  {"name": "Mangan", "state": "Sikkim", "lat": 27.5105, "lon": 88.5323},
  {"name": "Rangpo", "state": "Sikkim", "lat": 27.1759, "lon": 88.5316},

  {"name": "Chennai", "state": "Tamil Nadu", "lat": 13.0827, "lon": 80.2707},
  {"name": "Coimbatore", "state": "Tamil Nadu", "lat": 11.0168, "lon": 76.9558},
  {"name": "Madurai", "state": "Tamil Nadu", "lat": 9.9252, "lon": 78.1198},
  {"name": "Tiruchirappalli", "state": "Tamil Nadu", "lat": 10.7905, "lon": 78.7047},
  {"name": "Salem", "state": "Tamil Nadu", "lat": 11.6643, "lon": 78.1460},

  {"name": "Hyderabad", "state": "Telangana", "lat": 17.3850, "lon": 78.4867},
  {"name": "Warangal", "state": "Telangana", "lat": 17.9689, "lon": 79.5941},
  {"name": "Nizamabad", "state": "Telangana", "lat": 18.6725, "lon": 78.0941},
  {"name": "Karimnagar", "state": "Telangana", "lat": 18.4386, "lon": 79.1288},
  {"name": "Khammam", "state": "Telangana", "lat": 17.2473, "lon": 80.1514},

  {"name": "Agartala", "state": "Tripura", "lat": 23.8315, "lon": 91.2868},
  {"name": "Udaipur", "state": "Tripura", "lat": 23.5358, "lon": 91.4887},
  {"name": "Dharmanagar", "state": "Tripura", "lat": 24.3722, "lon": 92.1716},
  {"name": "Kailasahar", "state": "Tripura", "lat": 24.3317, "lon": 92.0052},
  {"name": "Belonia", "state": "Tripura", "lat": 23.2523, "lon": 91.4580},

  {"name": "Lucknow", "state": "Uttar Pradesh", "lat": 26.8467, "lon": 80.9462},
  {"name": "Kanpur", "state": "Uttar Pradesh", "lat": 26.4499, "lon": 80.3319},
  {"name": "Agra", "state": "Uttar Pradesh", "lat": 27.1767, "lon": 78.0081},
  {"name": "Varanasi", "state": "Uttar Pradesh", "lat": 25.3176, "lon": 82.9739},
  {"name": "Prayagraj", "state": "Uttar Pradesh", "lat": 25.4358, "lon": 81.8463},

  {"name": "Dehradun", "state": "Uttarakhand", "lat": 30.3165, "lon": 78.0322},
  {"name": "Haridwar", "state": "Uttarakhand", "lat": 29.9457, "lon": 78.1642},
  {"name": "Rishikesh", "state": "Uttarakhand", "lat": 30.0869, "lon": 78.2676},
  {"name": "Nainital", "state": "Uttarakhand", "lat": 29.3919, "lon": 79.4542},
  {"name": "Haldwani", "state": "Uttarakhand", "lat": 29.2183, "lon": 79.5130},

  {"name": "Kolkata", "state": "West Bengal", "lat": 22.5726, "lon": 88.3639},
  {"name": "Howrah", "state": "West Bengal", "lat": 22.5958, "lon": 88.2636},
  {"name": "Durgapur", "state": "West Bengal", "lat": 23.5204, "lon": 87.3119},
  {"name": "Asansol", "state": "West Bengal", "lat": 23.6739, "lon": 86.9524},
  {"name": "Siliguri", "state": "West Bengal", "lat": 26.7271, "lon": 88.3953},

  {"name": "Port Blair", "state": "Andaman and Nicobar Islands", "lat": 11.6234, "lon": 92.7265},
  {"name": "Diglipur", "state": "Andaman and Nicobar Islands", "lat": 13.2666, "lon": 93.0000},
  {"name": "Rangat", "state": "Andaman and Nicobar Islands", "lat": 12.5167, "lon": 92.9000},
  {"name": "Car Nicobar", "state": "Andaman and Nicobar Islands", "lat": 9.1500, "lon": 92.8166},

  {"name": "Chandigarh", "state": "Chandigarh", "lat": 30.7333, "lon": 76.7794},
  {"name": "Mani Majra", "state": "Chandigarh", "lat": 30.7218, "lon": 76.8283},
  {"name": "Panchkula", "state": "Chandigarh", "lat": 30.6942, "lon": 76.8606},
  {"name": "Mohali", "state": "Chandigarh", "lat": 30.7046, "lon": 76.7179},

  {"name": "Daman", "state": "Dadra and Nagar Haveli and Daman and Diu", "lat": 20.3974, "lon": 72.8328},
  {"name": "Diu", "state": "Dadra and Nagar Haveli and Daman and Diu", "lat": 20.7141, "lon": 70.9874},
  {"name": "Silvassa", "state": "Dadra and Nagar Haveli and Daman and Diu", "lat": 20.2766, "lon": 72.9964},
  {"name": "Naroli", "state": "Dadra and Nagar Haveli and Daman and Diu", "lat": 20.3540, "lon": 73.0050},

  {"name": "New Delhi", "state": "Delhi", "lat": 28.6139, "lon": 77.2090},
  {"name": "Noida", "state": "Delhi", "lat": 28.5355, "lon": 77.3910},
  {"name": "Dwarka", "state": "Delhi", "lat": 28.5921, "lon": 77.0460},
  {"name": "Rohini", "state": "Delhi", "lat": 28.7041, "lon": 77.1025},
  {"name": "Saket", "state": "Delhi", "lat": 28.5253, "lon": 77.2101},

  {"name": "Srinagar", "state": "Jammu and Kashmir", "lat": 34.0837, "lon": 74.7973},
  {"name": "Jammu", "state": "Jammu and Kashmir", "lat": 32.7266, "lon": 74.8570},
  {"name": "Anantnag", "state": "Jammu and Kashmir", "lat": 33.7311, "lon": 75.1487},
  {"name": "Baramulla", "state": "Jammu and Kashmir", "lat": 34.2090, "lon": 74.3436},
  {"name": "Udhampur", "state": "Jammu and Kashmir", "lat": 32.9160, "lon": 75.1413},

  {"name": "Leh", "state": "Ladakh", "lat": 34.1526, "lon": 77.5771},
  {"name": "Kargil", "state": "Ladakh", "lat": 34.5539, "lon": 76.1349},
  {"name": "Nubra", "state": "Ladakh", "lat": 34.6500, "lon": 77.5500},
  {"name": "Zanskar", "state": "Ladakh", "lat": 33.5000, "lon": 76.8333},

  {"name": "Kavaratti", "state": "Lakshadweep", "lat": 10.5669, "lon": 72.6420},
  {"name": "Agatti", "state": "Lakshadweep", "lat": 10.8544, "lon": 72.1974},
  {"name": "Minicoy", "state": "Lakshadweep", "lat": 8.2833, "lon": 73.0500},
  {"name": "Andrott", "state": "Lakshadweep", "lat": 10.8237, "lon": 73.6418},

  {"name": "Puducherry", "state": "Puducherry", "lat": 11.9416, "lon": 79.8083},
  {"name": "Karaikal", "state": "Puducherry", "lat": 10.9254, "lon": 79.8380},
  {"name": "Yanam", "state": "Puducherry", "lat": 16.7290, "lon": 82.2139},
  {"name": "Mahe", "state": "Puducherry", "lat": 11.7015, "lon": 75.5347}
]
